[
  {
    "id": "hn_01",
    "name": "VinFast Ha Noi",
    "lat": 21.0285,
    "lon": 105.8542,
    "p_station_kw": 150,
    "type": "DC",
    "amenities": ["coffee", "wc"]
  },
  {
    "id": "ninh_binh_01",
    "name": "VinFast Ninh Binh",
    "lat": 20.2506,
    "lon": 105.9745,
    "p_station_kw": 60,
    "type": "DC",
    "amenities": ["coffee", "restaurant", "wc"]
  },
  {
    "id": "vinh_01",
    "name": "VinFast Vinh",
    "lat": 18.6796,
    "lon": 105.6813,
    "p_station_kw": 50,
    "type": "DC",
    "amenities": ["coffee", "wc"]
  },
  {
    "id": "ha_tinh_01",
    "name": "VinFast Ha Tinh",
    "lat": 18.3559,
    "lon": 105.8877,
    "p_station_kw": 50,
    "type": "DC",
    "amenities": ["wc"]
  },
  {
    "id": "dong_hoi_01",
    "name": "VinFast Dong Hoi",
    "lat": 17.4689,
    "lon": 106.6223,
    "p_station_kw": 50,
    "type": "DC",
    "amenities": ["coffee", "restaurant", "wc"]
  },
  {
    "id": "hue_01",
    "name": "VinFast Hue",
    "lat": 16.4637,
    "lon": 107.5909,
    "p_station_kw": 60,
    "type": "DC",
    "amenities": ["coffee", "wc"]
  },
  {
    "id": "da_nang_01",
    "name": "VinFast Da Nang",
    "lat": 16.0544,
    "lon": 108.2022,
    "p_station_kw": 150,
    "type": "DC",
    "amenities": ["coffee", "restaurant", "wc"]
  }
]
